time_sec, lat_deg, lon_deg, speed_mps, heading_deg, pitch_deg, roll_deg, gps_hdg, imu_hdg, imu_hdg_error, imu_hdg_bias, gpsFixQual, numSat
135.66, 39.31285476685, -77.03449249268, 2.28, 95.60, -9.31, 1.75, 95.01, 99.01, -4.00, -3.41, SPS, 10
135.86, 39.31285095215, -77.03449249268, 2.27, 95.77, -9.25, 1.75, 95.88, 99.01, -3.13, -3.24, SPS, 10
136.07, 39.31285095215, -77.03448486328, 2.20, 95.90, -9.25, 1.69, 95.73, 99.01, -3.03, -3.11, SPS, 10
136.27, 39.31285095215, -77.03448486328, 2.11, 95.30, -9.25, 1.50, 94.90, 99.01, -4.22, -3.70, SPS, 10
136.48, 39.31285095215, -77.03447723389, 2.10, 95.16, -9.25, 1.50, 94.74, 99.01, -3.79, -3.85, SPS, 10
136.68, 39.31285095215, -77.03446960449, 2.07, 95.07, -8.88, 1.50, 95.68, 99.13, -4.07, -4.06, SPS, 10
136.83, 39.31285095215, -77.03446197510, 2.08, 95.67, -8.50, 1.69, 95.77, 99.26, -3.42, -3.59, SPS, 10
137.04, 39.31285095215, -77.03446197510, 2.10, 95.34, -7.50, 2.13, 95.03, 99.76, -4.60, -4.42, SPS, 10
137.24, 39.31284713745, -77.03445434570, 2.21, 99.56, -7.25, 2.19, 100.45, 100.44, 0.19, -0.89, SPS, 10
137.45, 39.31284713745, -77.03445434570, 2.22, 100.59, -6.38, 3.13, 99.76, 101.44, -1.43, -0.86, SPS, 10
137.65, 39.31284713745, -77.03444671631, 2.25, 101.75, -5.63, 3.81, 101.30, 102.69, -1.08, -0.94, SPS, 10
137.85, 39.31284713745, -77.03443908691, 2.29, 103.62, -5.38, 3.56, 103.56, 104.26, -0.32, -0.64, SPS, 10
138.06, 39.31284332275, -77.03443145752, 2.33, 104.42, -5.25, 3.50, 103.30, 105.94, -2.21, -1.52, SPS, 10
138.26, 39.31284332275, -77.03443145752, 2.35, 104.49, -5.06, 3.19, 102.46, 107.82, -4.86, -3.33, SPS, 10
138.47, 39.31284332275, -77.03442382813, 2.48, 108.53, -4.94, 3.00, 109.31, 109.69, 0.12, -1.17, SPS, 10
138.67, 39.31283950806, -77.03441619873, 2.58, 111.91, -4.81, 3.06, 114.47, 111.69, 1.46, 0.22, SPS, 10
138.87, 39.31283950806, -77.03441619873, 2.64, 115.53, -4.81, 3.19, 116.39, 113.69, 2.43, 1.84, SPS, 10
139.08, 39.31283569336, -77.03440856934, 2.76, 117.67, -4.88, 3.25, 117.75, 115.76, 1.82, 1.92, SPS, 10
139.28, 39.31283187866, -77.03440093994, 2.82, 119.41, -4.88, 3.31, 118.96, 117.88, 1.32, 1.53, SPS, 10
139.49, 39.31282806396, -77.03439331055, 2.88, 120.76, -4.81, 3.44, 120.10, 119.94, 0.33, 0.82, SPS, 10
139.69, 39.31282424927, -77.03438568115, 3.01, 123.67, -4.75, 3.44, 124.67, 122.07, 2.72, 1.60, SPS, 10
139.89, 39.31282424927, -77.03438568115, 2.85, 126.13, -4.75, 3.00, 125.98, 124.13, 1.90, 2.00, SPS, 10
140.10, 39.31282043457, -77.03437805176, 2.91, 127.93, -4.69, 2.69, 127.84, 126.13, 1.68, 1.80, SPS, 10
140.25, 39.31281661987, -77.03437805176, 3.00, 129.07, -4.63, 2.69, 128.45, 127.51, 1.38, 1.57, SPS, 10
140.45, 39.31281280518, -77.03437042236, 3.03, 129.59, -4.69, 2.44, 128.92, 129.01, 0.29, 0.59, SPS, 10
140.66, 39.31280517578, -77.03436279297, 3.14, 131.20, -4.63, 2.06, 131.04, 130.51, 0.85, 0.70, SPS, 10
140.86, 39.31280136108, -77.03435516357, 3.20, 131.89, -4.63, 2.00, 131.91, 131.44, 0.72, 0.45, SPS, 10
141.07, 39.31279754639, -77.03434753418, 3.47, 132.70, -4.38, 1.63, 131.96, 132.13, 0.02, 0.56, SPS, 10
141.27, 39.31279373169, -77.03433990479, 3.56, 130.83, -4.38, 1.00, 133.67, 132.26, -2.24, -1.43, SPS, 10
141.47, 39.31278991699, -77.03433227539, 3.56, 132.52, -4.56, 0.63, 131.14, 132.19, 0.67, 0.33, SPS, 10
141.68, 39.31278228760, -77.03433227539, 3.56, 130.72, -4.69, 1.00, 129.14, 132.07, -2.33, -1.35, SPS, 10
141.88, 39.31278228760, -77.03432464600, 3.54, 128.96, -4.75, 0.38, 127.74, 131.76, -3.52, -2.80, SPS, 10
142.09, 39.31277847290, -77.03431701660, 3.53, 127.23, -5.44, -0.94, 127.05, 130.88, -3.89, -3.65, SPS, 10
142.29, 39.31277465820, -77.03430938721, 3.68, 125.49, -6.00, -1.31, 124.64, 129.69, -4.66, -4.20, SPS, 10
142.49, 39.31277084351, -77.03430175781, 3.54, 122.86, -6.69, -1.81, 122.27, 128.19, -6.04, -5.34, SPS, 10
142.70, 39.31276702881, -77.03429412842, 3.57, 120.65, -7.19, -2.25, 123.81, 126.44, -5.96, -5.80, SPS, 10
142.90, 39.31276321411, -77.03429412842, 3.59, 120.75, -7.31, -2.63, 121.37, 124.32, -2.93, -3.57, SPS, 10
143.11, 39.31276321411, -77.03428649902, 3.59, 118.65, -7.81, -3.63, 118.53, 122.01, -3.45, -3.35, SPS, 10
143.31, 39.31276321411, -77.03427886963, 3.55, 115.75, -8.06, -4.31, 115.01, 119.32, -3.71, -3.56, SPS, 10
143.51, 39.31275558472, -77.03427124023, 3.49, 111.93, -8.19, -4.63, 112.37, 116.13, -4.47, -4.20, SPS, 10
143.67, 39.31275558472, -77.03426361084, 3.46, 109.89, -8.19, -4.88, 110.76, 113.76, -3.75, -3.86, SPS, 10
143.87, 39.31275558472, -77.03425598145, 3.33, 107.35, -8.44, -5.44, 106.80, 110.26, -2.52, -2.90, SPS, 10
144.08, 39.31275177002, -77.03424835205, 3.25, 103.91, -8.25, -5.75, 103.35, 106.57, -2.61, -2.66, SPS, 10
144.28, 39.31275177002, -77.03424072266, 3.11, 100.14, -8.06, -6.00, 96.87, 102.44, -2.14, -2.31, SPS, 10
144.48, 39.31275558472, -77.03423309326, 3.09, 92.71, -7.69, -6.06, 89.40, 98.32, -7.81, -5.61, SPS, 10
144.69, 39.31275558472, -77.03422546387, 3.12, 85.60, -7.44, -6.00, 83.78, 94.19, -9.93, -8.60, SPS, 10
144.89, 39.31275558472, -77.03421783447, 3.12, 80.48, -7.31, -6.13, 83.54, 89.76, -9.04, -9.27, SPS, 10
145.10, 39.31275558472, -77.03421783447, 3.14, 79.33, -7.31, -6.38, 82.75, 85.32, -4.23, -5.99, SPS, 10
145.30, 39.31275939941, -77.03421020508, 3.03, 77.30, -7.31, -6.44, 77.66, 80.69, -2.51, -3.39, SPS, 10
145.50, 39.31276321411, -77.03420257568, 2.93, 72.69, -7.81, -5.94, 67.55, 76.13, -3.67, -3.44, SPS, 10
145.71, 39.31276321411, -77.03419494629, 2.79, 63.44, -7.69, -6.06, 61.54, 71.19, -9.49, -7.75, SPS, 10
145.91, 39.31276702881, -77.03418731689, 2.76, 57.33, -7.44, -6.44, 57.26, 66.69, -10.03, -9.37, SPS, 10
146.12, 39.31277084351, -77.03417968750, 2.74, 52.35, -7.50, -6.56, 52.12, 62.13, -10.17, -9.78, SPS, 10
146.32, 39.31277465820, -77.03417968750, 2.56, 47.50, -7.50, -6.13, 45.93, 57.26, -9.61, -9.75, SPS, 10
146.52, 39.31277847290, -77.03417968750, 2.46, 40.99, -7.56, -5.81, 39.80, 52.69, -12.87, -11.70, SPS, 10
146.73, 39.31278228760, -77.03417968750, 2.55, 34.61, -7.88, -5.44, 32.16, 48.13, -15.97, -14.75, SPS, 10
146.93, 39.31278610229, -77.03417968750, 2.42, 28.57, -7.81, -5.25, 27.48, 43.63, -15.37, -15.06, SPS, 10
147.08, 39.31279373169, -77.03417205811, 2.70, 22.66, -7.69, -5.00, 21.52, 39.88, -18.36, -17.79, SPS, 10
147.29, 39.31279754639, -77.03417205811, 2.76, 16.76, -7.69, -5.13, 15.99, 35.38, -19.39, -19.00, SPS, 10
147.49, 39.31280136108, -77.03416442871, 2.86, 12.02, -8.00, -5.06, 13.07, 30.82, -17.75, -18.28, SPS, 10
147.70, 39.31280899048, -77.03416442871, 2.89, 8.49, -7.63, -4.94, 10.20, 26.07, -15.87, -16.72, SPS, 10
147.90, 39.31281280518, -77.03416442871, 2.91, 5.49, -7.56, -5.00, 8.06, 21.07, -13.01, -14.29, SPS, 10
148.10, 39.31282043457, -77.03416442871, 2.94, 3.28, -7.50, -5.13, 5.52, 16.26, -10.74, -11.85, SPS, 10
148.31, 39.31282424927, -77.03416442871, 3.04, 0.38, -7.00, -5.06, 1.34, 11.32, -9.98, -10.46, SPS, 10
148.51, 39.31283187866, -77.03416442871, 3.10, -4.03, -6.88, -4.75, -3.62, 6.07, -9.69, -9.89, SPS, 10
148.72, 39.31283569336, -77.03417205811, 3.15, -8.77, -7.06, -4.56, -8.01, 0.94, -8.95, -9.33, SPS, 10
148.92, 39.31284332275, -77.03417205811, 3.20, -13.51, -7.00, -4.94, -13.02, -4.24, -8.78, -9.02, SPS, 10
149.12, 39.31284713745, -77.03417968750, 3.23, -18.96, -7.13, -5.50, -18.57, -9.87, -8.70, -8.90, SPS, 10
149.33, 39.31285476685, -77.03417968750, 3.35, -23.92, -6.63, -5.31, -23.62, -15.24, -8.38, -8.53, SPS, 9
149.53, 39.31286239624, -77.03417968750, 3.48, -31.05, -6.13, -5.44, -30.93, -20.74, -11.56, -10.30, SPS, 9
149.74, 39.31286239624, -77.03418731689, 3.61, -37.75, -5.44, -5.38, -36.94, -26.12, -12.20, -11.63, SPS, 9
149.94, 39.31287002563, -77.03419494629, 3.66, -44.33, -4.44, -4.69, -43.29, -31.93, -12.80, -12.39, SPS, 9
150.14, 39.31287384033, -77.03420257568, 3.77, -49.92, -3.75, -4.81, -48.58, -37.56, -12.40, -12.36, SPS, 9
150.35, 39.31287765503, -77.03421783447, 3.85, -54.83, -3.25, -4.81, -53.08, -42.93, -11.52, -11.90, SPS, 9
150.50, 39.31287765503, -77.03421783447, 4.06, -58.37, -5.56, -4.81, -58.21, -46.74, -11.47, -11.54, SPS, 9
150.71, 39.31288146973, -77.03422546387, 4.13, -63.40, -7.31, -4.88, -63.25, -52.06, -11.19, -11.27, SPS, 10
150.91, 39.31288146973, -77.03423309326, 4.16, -67.74, -7.00, -4.81, -66.02, -57.18, -8.84, -9.70, SPS, 10
151.11, 39.31288528442, -77.03424835205, 4.18, -71.46, -7.31, -4.69, -71.21, -62.18, -9.03, -9.16, SPS, 10
151.32, 39.31288528442, -77.03425598145, 4.20, -76.38, -7.38, -4.81, -76.29, -67.18, -9.11, -9.15, SPS, 10
151.52, 39.31288909912, -77.03426361084, 4.21, -80.78, -7.31, -4.75, -80.75, -71.56, -9.19, -9.21, SPS, 10
151.73, 39.31288909912, -77.03427124023, 4.20, -84.53, -7.13, -4.56, -83.95, -75.56, -8.39, -8.68, SPS, 10
151.93, 39.31288909912, -77.03429412842, 4.04, -87.50, -7.44, -4.06, -86.36, -79.31, -7.99, -8.19, SPS, 9
152.13, 39.31288909912, -77.03429412842, 3.98, -89.70, -8.00, -3.75, -88.13, -82.87, -6.07, -6.83, SPS, 9
152.34, 39.31288909912, -77.03430938721, 3.97, -91.09, -7.94, -3.63, -89.50, -85.99, -4.26, -5.10, SPS, 9
152.54, 39.31288909912, -77.03431701660, 3.96, -92.71, -7.88, -3.38, -91.41, -88.87, -3.23, -3.84, SPS, 9
152.75, 39.31288528442, -77.03432464600, 3.96, -94.27, -7.81, -3.31, -93.35, -91.31, -2.54, -2.96, SPS, 9
152.95, 39.31288528442, -77.03433227539, 3.98, -95.98, -7.75, -2.63, -95.71, -93.06, -3.03, -2.92, SPS, 9
153.15, 39.31288146973, -77.03434753418, 4.02, -97.65, -7.94, -2.81, -97.53, -94.43, -3.41, -3.22, SPS, 9
153.36, 39.31288146973, -77.03435516357, 4.13, -99.85, -8.00, -2.63, -100.03, -95.56, -4.72, -4.29, SPS, 9
153.56, 39.31288146973, -77.03436279297, 4.15, -101.40, -7.75, -2.56, -101.75, -96.31, -5.63, -5.10, SPS, 9
153.77, 39.31287765503, -77.03437805176, 4.24, -102.96, -7.69, -2.81, -103.21, -96.87, -6.47, -6.09, SPS, 9
153.92, 39.31287765503, -77.03437805176, 4.29, -103.22, -7.88, -2.44, -102.58, -97.06, -5.52, -5.84, SPS, 9
154.12, 39.31287384033, -77.03438568115, 4.35, -102.62, -7.69, -2.38, -103.13, -96.87, -6.26, -6.01, SPS, 9
154.33, 39.31287384033, -77.03440093994, 4.41, -102.62, -7.69, -2.63, -103.31, -96.49, -6.82, -6.47, SPS, 9
154.53, 39.31287002563, -77.03441619873, 4.56, -101.96, -8.00, -3.00, -101.74, -95.87, -5.68, -6.09, SPS, 9
154.73, 39.31286621094, -77.03442382813, 4.66, -100.74, -7.69, -2.63, -100.72, -94.99, -5.48, -5.74, SPS, 9
154.94, 39.31286621094, -77.03443908691, 4.68, -100.08, -7.63, -2.56, -100.44, -94.06, -6.13, -6.02, SPS, 9
155.14, 39.31286621094, -77.03444671631, 4.71, -99.15, -7.81, -3.25, -99.26, -92.93, -6.08, -6.21, SPS, 9
155.35, 39.31286239624, -77.03445434570, 4.73, -97.44, -7.50, -3.69, -97.56, -91.93, -5.38, -5.51, SPS, 9
155.55, 39.31286239624, -77.03446960449, 4.76, -96.24, -7.25, -3.13, -96.77, -90.56, -5.84, -5.68, SPS, 9
155.75, 39.31286239624, -77.03447723389, 4.81, -95.53, -7.31, -3.19, -96.12, -89.37, -6.44, -6.16, SPS, 9
155.96, 39.31286239624, -77.03449249268, 4.97, -94.11, -7.13, -3.81, -94.06, -88.18, -5.63, -5.93, SPS, 9
156.16, 39.31286239624, -77.03450012207, 5.10, -92.01, -7.13, -3.88, -91.93, -86.74, -4.81, -5.26, SPS, 9
156.37, 39.31286239624, -77.03451538086, 5.21, -90.33, -7.19, -3.38, -90.45, -85.49, -4.64, -4.83, SPS, 9
156.57, 39.31286239624, -77.03453063965, 5.16, -89.12, -7.31, -3.69, -88.57, -84.24, -4.42, -4.87, SPS, 9
156.77, 39.31286239624, -77.03453826904, 5.14, -89.03, -7.38, -3.88, -89.48, -83.31, -6.73, -5.73, SPS, 9
156.98, 39.31286239624, -77.03455352783, 5.17, -88.45, -7.56, -3.69, -88.45, -82.31, -6.22, -6.15, SPS, 9
157.18, 39.31286239624, -77.03456115723, 5.29, -87.74, -7.88, -3.63, -88.12, -81.56, -6.23, -6.19, SPS, 9
157.34, 39.31286239624, -77.03457641602, 5.33, -87.47, -8.00, -3.69, -87.57, -81.12, -6.33, -6.35, SPS, 9
157.54, 39.31286239624, -77.03458404541, 5.43, -86.71, -8.00, -3.50, -86.72, -80.62, -5.98, -6.09, SPS, 9
157.74, 39.31286621094, -77.03459930420, 5.48, -86.26, -8.06, -3.63, -86.37, -80.31, -6.00, -5.95, SPS, 9
157.95, 39.31286621094, -77.03461456299, 5.49, -86.21, -8.00, -4.00, -86.19, -80.06, -6.07, -6.15, SPS, 9
158.15, 39.31286621094, -77.03462219238, 5.61, -86.02, -7.81, -3.63, -86.28, -79.93, -6.29, -6.09, SPS, 9
158.36, 39.31286621094, -77.03463745117, 5.63, -86.41, -7.44, -3.44, -86.68, -79.81, -6.87, -6.60, SPS, 9
158.56, 39.31286621094, -77.03465270996, 5.73, -86.17, -7.06, -3.56, -86.00, -79.74, -6.26, -6.43, SPS, 9
158.76, 39.31287002563, -77.03466796875, 5.85, -85.53, -7.00, -3.50, -85.42, -79.56, -5.86, -5.98, SPS, 9
158.97, 39.31287002563, -77.03468322754, 5.98, -85.44, -6.94, -3.44, -85.33, -79.37, -6.16, -6.07, SPS, 9
159.17, 39.31287002563, -77.03469085693, 6.01, -85.10, -6.75, -3.44, -86.03, -79.12, -5.92, -5.98, SPS, 9
159.38, 39.31287002563, -77.03470611572, 6.13, -85.63, -6.50, -3.38, -85.08, -78.99, -6.79, -6.63, SPS, 9
159.58, 39.31287002563, -77.03472137451, 6.14, -85.11, -6.50, -3.44, -85.38, -78.81, -6.24, -6.30, SPS, 9
159.78, 39.31287384033, -77.03473663330, 6.20, -85.17, -6.50, -3.38, -85.33, -78.74, -6.41, -6.42, SPS, 9
159.99, 39.31287384033, -77.03475189209, 6.26, -84.90, -6.44, -3.56, -84.88, -78.62, -6.06, -6.28, SPS, 9
160.19, 39.31287384033, -77.03476715088, 6.32, -84.73, -6.38, -3.44, -84.58, -78.62, -5.95, -6.11, SPS, 9
160.40, 39.31287765503, -77.03478240967, 6.36, -84.55, -6.25, -3.31, -84.68, -78.62, -5.82, -5.93, SPS, 9
160.60, 39.31287765503, -77.03479766846, 6.41, -84.79, -6.31, -3.44, -84.83, -78.62, -6.34, -6.17, SPS, 10
160.75, 39.31287765503, -77.03481292725, 6.44, -84.84, -6.13, -3.44, -84.87, -78.62, -6.25, -6.22, SPS, 9
160.96, 39.31288146973, -77.03482818604, 6.48, -84.76, -5.94, -3.38, -84.63, -78.68, -5.95, -6.07, SPS, 9
161.16, 39.31288146973, -77.03484344482, 6.51, -84.57, -5.81, -3.50, -84.40, -78.74, -5.66, -5.82, SPS, 9
161.36, 39.31288146973, -77.03485870361, 6.53, -84.57, -5.81, -3.63, -84.58, -78.74, -5.84, -5.83, SPS, 9
161.57, 39.31288146973, -77.03487396240, 6.54, -84.54, -5.56, -3.94, -84.46, -78.87, -5.58, -5.67, SPS, 9
161.77, 39.31288146973, -77.03488922119, 6.56, -84.43, -5.63, -3.75, -84.80, -78.87, -5.50, -5.57, SPS, 9
161.98, 39.31288146973, -77.03490447998, 6.59, -85.00, -5.75, -3.25, -86.01, -78.87, -6.52, -6.13, SPS, 9
162.18, 39.31288146973, -77.03491973877, 6.68, -85.58, -5.69, -3.63, -85.61, -78.87, -6.79, -6.71, SPS, 9
162.38, 39.31288528442, -77.03493499756, 6.63, -85.51, -5.44, -3.63, -85.45, -78.87, -6.55, -6.64, SPS, 10
162.59, 39.31288528442, -77.03495025635, 6.60, -85.43, -5.25, -3.81, -85.64, -78.87, -6.52, -6.57, SPS, 9
162.79, 39.31288528442, -77.03496551514, 6.59, -85.46, -5.19, -3.63, -85.41, -78.81, -6.64, -6.66, SPS, 9
163.00, 39.31288909912, -77.03497314453, 6.58, -85.27, -5.13, -3.44, -84.81, -78.81, -6.29, -6.46, SPS, 9
163.20, 39.31288909912, -77.03499603271, 6.58, -85.19, -5.06, -3.31, -85.52, -78.87, -6.41, -6.32, SPS, 10
163.40, 39.31288909912, -77.03501129150, 6.58, -85.49, -4.81, -3.06, -87.50, -78.87, -6.75, -6.62, SPS, 10
163.61, 39.31288909912, -77.03502655029, 6.55, -86.58, -4.75, -2.88, -85.86, -78.87, -7.79, -7.71, SPS, 9
163.81, 39.31288909912, -77.03504180908, 6.52, -86.13, -4.44, -2.50, -86.39, -78.87, -7.18, -7.27, SPS, 10
164.02, 39.31289291382, -77.03504943848, 6.49, -86.36, -4.31, -2.44, -86.56, -78.93, -7.46, -7.43, SPS, 9
164.17, 39.31289291382, -77.03506469727, 6.46, -86.54, -4.25, -2.50, -87.39, -78.93, -7.69, -7.61, SPS, 9
164.37, 39.31289291382, -77.03508758545, 6.55, -87.20, -4.31, -2.13, -87.54, -78.93, -8.50, -8.27, SPS, 9
164.58, 39.31289291382, -77.03509521484, 6.52, -87.60, -4.44, -1.94, -87.47, -78.99, -8.77, -8.60, SPS, 9
164.78, 39.31289672852, -77.03511047363, 6.57, -87.41, -4.50, -2.44, -86.25, -78.99, -8.30, -8.42, SPS, 9
164.99, 39.31289672852, -77.03513336182, 6.45, -86.31, -4.56, -2.50, -85.85, -78.99, -6.79, -7.31, SPS, 9
165.19, 39.31289672852, -77.03514099121, 6.32, -85.81, -4.44, -2.56, -85.99, -78.93, -6.67, -6.87, SPS, 9
165.39, 39.31289672852, -77.03515625000, 6.33, -85.90, -4.50, -3.00, -85.75, -78.87, -7.10, -7.03, SPS, 9
165.60, 39.31289672852, -77.03517150879, 6.31, -85.69, -4.44, -3.25, -85.69, -78.74, -6.94, -6.95, SPS, 9
165.80, 39.31290054321, -77.03518676758, 6.30, -85.63, -4.50, -3.06, -85.51, -78.68, -6.95, -6.95, SPS, 9
166.01, 39.31290054321, -77.03520202637, 6.30, -85.72, -4.63, -3.13, -86.02, -78.62, -7.31, -7.10, SPS, 9
166.21, 39.31290054321, -77.03521728516, 6.10, -85.81, -4.63, -3.00, -85.31, -78.56, -7.26, -7.26, SPS, 9
166.41, 39.31290054321, -77.03523254395, 6.23, -85.31, -4.56, -2.56, -85.47, -78.43, -6.76, -6.88, SPS, 9
166.62, 39.31290054321, -77.03524780273, 6.28, -85.54, -4.50, -2.81, -85.76, -78.43, -7.25, -7.10, SPS, 10
166.82, 39.31290054321, -77.03525543213, 6.31, -85.69, -4.56, -3.06, -85.49, -78.31, -7.18, -7.28, SPS, 10
167.03, 39.31290054321, -77.03527832031, 6.34, -85.40, -4.56, -2.63, -85.40, -78.24, -7.16, -7.16, SPS, 10
167.23, 39.31290054321, -77.03528594971, 6.37, -85.36, -4.56, -2.69, -85.45, -78.24, -7.21, -7.16, SPS, 10
167.43, 39.31290054321, -77.03530883789, 6.38, -85.08, -4.50, -2.81, -84.69, -78.24, -6.45, -6.83, SPS, 10
167.59, 39.31290054321, -77.03532409668, 6.51, -84.91, -4.50, -2.56, -85.71, -78.18, -7.53, -7.13, SPS, 10
167.79, 39.31290435791, -77.03533172607, 6.50, -85.56, -4.56, -2.44, -85.94, -78.18, -7.76, -7.57, SPS, 10
167.99, 39.31290435791, -77.03534698486, 6.51, -85.78, -4.56, -2.38, -85.12, -78.18, -6.94, -7.27, SPS, 10
168.20, 39.31290435791, -77.03536987305, 6.49, -85.22, -4.44, -2.38, -85.17, -78.18, -6.99, -7.01, SPS, 10
168.40, 39.31290817261, -77.03537750244, 6.49, -85.47, -4.50, -2.31, -86.55, -78.18, -8.37, -7.83, SPS, 10
168.61, 39.31290817261, -77.03539276123, 6.49, -86.66, -4.69, -2.38, -87.05, -78.18, -8.87, -8.67, SPS, 10
168.81, 39.31290817261, -77.03540802002, 6.51, -86.88, -4.81, -2.50, -86.66, -78.18, -8.48, -8.59, SPS, 10
169.01, 39.31290817261, -77.03542327881, 6.52, -86.59, -5.00, -2.63, -87.01, -78.18, -8.83, -8.62, SPS, 10
169.22, 39.31291198730, -77.03543853760, 6.64, -86.84, -5.19, -2.75, -86.73, -78.12, -8.61, -8.66, SPS, 9
169.42, 39.31291198730, -77.03545379639, 6.63, -86.80, -5.25, -2.75, -86.53, -78.12, -8.41, -8.55, SPS, 9
169.63, 39.31291198730, -77.03546905518, 6.62, -86.58, -5.31, -2.81, -86.30, -78.12, -8.18, -8.32, SPS, 9
169.83, 39.31291198730, -77.03549194336, 6.63, -87.13, -5.38, -2.81, -87.61, -78.06, -9.55, -9.07, SPS, 9
170.03, 39.31291580200, -77.03550720215, 6.64, -87.34, -5.31, -3.06, -87.31, -78.06, -9.25, -9.28, SPS, 9
170.24, 39.31291580200, -77.03553009033, 6.67, -87.16, -5.38, -3.13, -86.96, -77.99, -8.97, -9.17, SPS, 9
170.44, 39.31291961670, -77.03553771973, 6.87, -86.86, -5.44, -2.81, -86.96, -77.87, -9.09, -8.99, SPS, 9
170.65, 39.31291961670, -77.03556060791, 6.81, -85.74, -5.63, -3.00, -85.01, -77.87, -7.14, -7.87, SPS, 9
170.85, 39.31292343140, -77.03556823730, 6.77, -84.27, -5.63, -3.19, -83.59, -77.81, -5.72, -6.47, SPS, 9
171.00, 39.31292343140, -77.03557586670, 6.78, -84.00, -5.75, -2.94, -84.24, -77.74, -6.50, -6.38, SPS, 8
171.21, 39.31292343140, -77.03559875488, 6.81, -84.08, -5.88, -2.94, -84.69, -77.62, -7.07, -6.77, SPS, 9
171.41, 39.31292343140, -77.03560638428, 6.84, -84.39, -6.00, -3.13, -84.93, -77.43, -7.50, -7.23, SPS, 9
171.62, 39.31292343140, -77.03562927246, 6.87, -84.61, -6.00, -2.81, -84.66, -77.24, -7.42, -7.39, SPS, 9
171.82, 39.31292343140, -77.03564453125, 6.91, -84.31, -6.06, -3.00, -84.32, -76.87, -7.45, -7.45, SPS, 10
172.02, 39.31292724609, -77.03565979004, 6.96, -83.61, -6.19, -3.06, -83.11, -76.49, -6.62, -6.87, SPS, 10
172.23, 39.31292724609, -77.03567504883, 6.83, -82.95, -6.38, -2.88, -83.86, -76.12, -7.74, -7.29, SPS, 10
172.43, 39.31293106079, -77.03569793701, 6.95, -83.39, -6.63, -2.63, -83.65, -75.68, -7.84, -7.71, SPS, 10
172.64, 39.31293487549, -77.03571319580, 6.93, -82.57, -6.75, -2.75, -82.64, -75.06, -7.46, -7.52, SPS, 10
172.84, 39.31293487549, -77.03572845459, 6.92, -81.62, -6.81, -2.50, -81.65, -74.43, -7.09, -7.19, SPS, 10
173.04, 39.31293869019, -77.03574371338, 6.88, -81.16, -6.94, -2.44, -81.44, -73.81, -7.45, -7.36, SPS, 10
173.25, 39.31294250488, -77.03576660156, 6.77, -80.55, -7.13, -2.44, -80.69, -73.18, -7.38, -7.36, SPS, 9
173.45, 39.31294250488, -77.03577423096, 6.77, -80.28, -7.19, -2.38, -80.89, -72.43, -8.27, -7.85, SPS, 9
173.66, 39.31294250488, -77.03578948975, 6.54, -80.29, -7.25, -2.25, -80.94, -71.74, -9.01, -8.55, SPS, 9
173.86, 39.31294250488, -77.03580474854, 6.51, -79.51, -7.44, -2.19, -79.61, -70.87, -8.49, -8.65, SPS, 9
174.06, 39.31294631958, -77.03582000732, 6.47, -78.53, -7.75, -1.88, -78.68, -70.06, -8.44, -8.48, SPS, 10
174.27, 39.31295013428, -77.03583526611, 6.43, -77.40, -7.88, -1.63, -77.40, -69.24, -7.97, -8.15, SPS, 10
174.42, 39.31295013428, -77.03584289551, 6.39, -76.73, -7.88, -1.88, -76.65, -68.62, -8.03, -8.07, SPS, 9
174.62, 39.31295394897, -77.03585815430, 6.30, -75.70, -8.00, -2.00, -76.01, -67.74, -8.27, -8.11, SPS, 9
174.83, 39.31295776367, -77.03587341309, 6.30, -74.98, -8.19, -1.44, -75.04, -66.81, -8.23, -8.20, SPS, 9
175.03, 39.31296157837, -77.03588867188, 6.25, -73.50, -8.31, -1.63, -73.19, -65.93, -7.07, -7.57, SPS, 9
175.24, 39.31296920776, -77.03590393066, 6.20, -71.91, -8.38, -1.75, -72.05, -64.87, -6.93, -7.04, SPS, 9
175.44, 39.31297302246, -77.03591918945, 6.13, -70.84, -8.50, -1.81, -71.21, -63.93, -7.03, -6.91, SPS, 10
175.64, 39.31297683716, -77.03592681885, 6.08, -69.57, -8.81, -1.38, -69.68, -62.93, -6.50, -6.64, SPS, 10
175.85, 39.31298065186, -77.03594207764, 6.04, -68.37, -8.88, -1.31, -68.62, -61.93, -6.44, -6.44, SPS, 10
176.05, 39.31298446655, -77.03595733643, 6.00, -67.51, -9.00, -1.00, -67.68, -60.99, -6.50, -6.52, SPS, 10
176.26, 39.31298828125, -77.03596496582, 6.10, -66.25, -9.00, -0.94, -66.21, -59.99, -5.97, -6.26, SPS, 10
176.46, 39.31299591064, -77.03598022461, 5.93, -65.37, -9.19, -0.81, -65.76, -59.12, -6.39, -6.25, SPS, 10
176.66, 39.31299972534, -77.03599548340, 5.93, -64.59, -9.25, -0.69, -64.98, -58.12, -6.55, -6.47, SPS, 10
176.87, 39.31300354004, -77.03600311279, 5.93, -63.59, -9.31, -0.50, -63.66, -57.18, -6.41, -6.41, SPS, 10
177.07, 39.31301116943, -77.03601837158, 5.94, -62.81, -9.31, -0.25, -62.47, -56.31, -6.48, -6.51, SPS, 10
177.28, 39.31301498413, -77.03603363037, 5.93, -61.75, -9.25, -0.13, -61.08, -55.31, -6.42, -6.44, SPS, 10
177.48, 39.31302261353, -77.03604125977, 5.91, -60.57, -9.25, 0.00, -61.83, -54.37, -6.20, -6.20, SPS, 10
177.68, 39.31302261353, -77.03605651855, 5.91, -60.19, -9.31, 0.19, -59.40, -53.37, -6.69, -6.82, SPS, 10
177.84, 39.31303024292, -77.03607177734, 5.93, -60.09, -9.38, 0.25, -61.33, -52.68, -8.40, -7.41, SPS, 10
178.04, 39.31303787231, -77.03607940674, 5.92, -58.82, -9.44, 0.38, -58.60, -51.74, -6.61, -7.08, SPS, 10
178.25, 39.31304168701, -77.03608703613, 5.91, -56.96, -9.44, 0.50, -56.84, -50.74, -5.85, -6.22, SPS, 10
178.45, 39.31304931641, -77.03610229492, 5.86, -55.34, -9.63, 0.63, -55.21, -49.81, -5.15, -5.54, SPS, 10
178.65, 39.31305694580, -77.03611755371, 5.86, -54.70, -9.63, 0.44, -55.11, -48.87, -5.99, -5.83, SPS, 10
178.86, 39.31306076050, -77.03612518311, 5.89, -53.73, -9.69, 0.38, -53.96, -47.87, -5.84, -5.87, SPS, 10
179.06, 39.31306838989, -77.03613281250, 5.74, -52.78, -9.69, 0.56, -53.14, -46.93, -5.96, -5.85, SPS, 10
179.27, 39.31307220459, -77.03614807129, 5.94, -52.68, -9.69, 0.69, -53.41, -46.06, -7.17, -6.62, SPS, 10
179.47, 39.31307983398, -77.03615570068, 5.90, -52.02, -9.75, 0.50, -51.75, -45.06, -7.00, -6.96, SPS, 10
179.67, 39.31308746338, -77.03616333008, 5.94, -50.74, -9.69, 0.50, -50.03, -44.12, -6.29, -6.62, SPS, 10
179.88, 39.31309509277, -77.03617858887, 5.96, -49.33, -9.69, 0.75, -48.61, -43.24, -5.82, -6.09, SPS, 10
180.08, 39.31310272217, -77.03618621826, 5.98, -48.12, -9.69, 1.06, -48.18, -42.37, -5.67, -5.75, SPS, 10
180.29, 39.31311035156, -77.03620147705, 6.01, -47.29, -9.63, 1.13, -45.44, -41.49, -5.82, -5.80, SPS, 10
180.49, 39.31311798096, -77.03620147705, 6.06, -45.47, -9.63, 1.31, -45.93, -40.68, -4.70, -4.79, SPS, 10
180.69, 39.31312561035, -77.03621673584, 6.07, -46.59, -9.50, 1.44, -47.58, -39.99, -8.17, -6.60, SPS, 10
180.90, 39.31313323975, -77.03623199463, 6.03, -46.48, -9.56, 1.13, -46.28, -39.37, -7.13, -7.11, SPS, 10
181.10, 39.31314086914, -77.03623962402, 6.01, -45.57, -9.50, 1.00, -45.08, -38.87, -6.40, -6.71, SPS, 10
181.25, 39.31314849854, -77.03624725342, 6.01, -44.67, -9.50, 1.19, -44.46, -38.56, -5.78, -6.12, SPS, 10
181.46, 39.31315612793, -77.03626251221, 6.02, -44.64, -9.56, 1.06, -44.99, -38.18, -6.68, -6.46, SPS, 10
181.66, 39.31316375732, -77.03627014160, 6.05, -44.55, -9.50, 0.88, -44.63, -37.93, -6.64, -6.62, SPS, 10
181.87, 39.31317138672, -77.03627777100, 6.09, -43.40, -9.38, 1.13, -43.17, -37.62, -5.49, -5.78, SPS, 10
182.07, 39.31317901611, -77.03628540039, 5.97, -43.31, -9.38, 1.25, -43.82, -37.37, -6.28, -5.94, SPS, 10
182.27, 39.31318664551, -77.03630065918, 6.00, -43.34, -9.38, 1.19, -42.87, -37.18, -6.10, -6.16, SPS, 10
182.48, 39.31319808960, -77.03630828857, 6.02, -42.77, -9.31, 1.44, -42.75, -36.93, -5.73, -5.84, SPS, 10
182.68, 39.31320571899, -77.03632354736, 6.04, -42.75, -9.31, 1.31, -43.17, -36.81, -6.05, -5.94, SPS, 10
182.89, 39.31321334839, -77.03632354736, 6.07, -42.76, -9.38, 1.38, -43.22, -36.62, -6.13, -6.14, SPS, 10
183.09, 39.31322097778, -77.03633880615, 6.07, -42.98, -9.44, 1.69, -42.06, -36.56, -6.47, -6.42, SPS, 10
183.29, 39.31322860718, -77.03634643555, 6.04, -42.55, -9.50, 1.50, -42.88, -36.49, -6.15, -6.06, SPS, 10
183.50, 39.31323623657, -77.03636169434, 6.05, -41.39, -9.56, 1.50, -40.61, -36.56, -3.44, -4.83, SPS, 10
183.70, 39.31324386597, -77.03636169434, 6.04, -41.11, -9.56, 1.69, -42.10, -36.56, -4.67, -4.56, SPS, 10
183.91, 39.31325149536, -77.03637695313, 6.00, -42.24, -9.56, 1.63, -42.72, -36.62, -6.19, -5.62, SPS, 10
184.11, 39.31325912476, -77.03638458252, 5.89, -42.72, -9.69, 1.63, -43.05, -36.62, -6.35, -6.11, SPS, 10
184.31, 39.31326675415, -77.03639221191, 5.73, -42.96, -9.50, 1.56, -43.05, -36.62, -6.42, -6.34, SPS, 10
184.52, 39.31327438354, -77.03639984131, 5.73, -42.92, -9.69, 1.63, -44.45, -36.62, -6.22, -6.30, SPS, 10
184.67, 39.31328201294, -77.03641510010, 5.68, -43.59, -9.63, 1.69, -43.00, -36.62, -6.88, -6.97, SPS, 10
184.88, 39.31328964233, -77.03642272949, 5.54, -43.43, -9.50, 1.56, -41.99, -36.49, -7.16, -6.93, SPS, 10
185.08, 39.31329727173, -77.03643035889, 5.48, -42.14, -9.81, 1.44, -41.19, -36.43, -5.21, -5.71, SPS, 10
185.28, 39.31330108643, -77.03643798828, 5.34, -41.09, -9.88, 1.50, -40.38, -36.24, -4.46, -4.85, SPS, 10
185.49, 39.31330871582, -77.03644561768, 5.06, -40.33, -10.25, 1.50, -39.91, -36.24, -3.68, -4.08, SPS, 10
185.69, 39.31331634521, -77.03645324707, 4.84, -39.96, -12.63, 1.44, -40.15, -36.18, -3.69, -3.78, SPS, 10
185.90, 39.31332015991, -77.03646087646, 4.55, -40.32, -14.38, 1.56, -41.93, -36.18, -4.40, -4.14, SPS, 10
186.10, 39.31332778931, -77.03646850586, 4.36, -41.48, -15.81, 1.56, -40.83, -36.18, -5.65, -5.30, SPS, 10
186.30, 39.31333541870, -77.03647613525, 4.18, -40.40, -16.63, 1.63, -39.21, -36.18, -3.47, -4.22, SPS, 10
186.51, 39.31333923340, -77.03648376465, 3.91, -39.53, -17.06, 1.75, -38.97, -36.18, -3.08, -3.35, SPS, 10
186.71, 39.31333923340, -77.03648376465, 3.48, -39.27, -17.13, 1.63, -39.46, -36.12, -3.23, -3.15, SPS, 10
186.92, 39.31334304810, -77.03648376465, 3.17, -39.63, -17.19, 1.56, -39.49, -36.12, -3.78, -3.51, SPS, 10
187.12, 39.31334686279, -77.03649139404, 2.85, -39.39, -17.19, 1.56, -39.52, -36.12, -3.40, -3.34, SPS, 10
187.32, 39.31335067749, -77.03649902344, 2.70, -39.47, -17.19, 1.50, -41.90, -36.12, -5.78, -4.56, SPS, 10
187.53, 39.31335449219, -77.03649902344, 2.27, -40.73, -17.25, 1.56, -41.52, -36.18, -5.34, -4.94, SPS, 10
187.73, 39.31335830688, -77.03650665283, 2.14, -38.39, -17.19, 1.63, -38.22, -36.12, -2.10, -2.27, SPS, 10
187.94, 39.31336212158, -77.03650665283, 1.85, -38.39, -17.13, 1.56, -38.48, -36.12, -2.10, -2.27, SPS, 10
188.09, 39.31336212158, -77.03651428223, 1.56, -38.39, -17.06, 1.50, -36.56, -36.12, -2.10, -2.27, SPS, 10
188.29, 39.31336212158, -77.03651428223, 1.45, -38.39, -16.94, 1.44, -36.56, -36.12, -2.10, -2.27, SPS, 10
188.50, 39.31336593628, -77.03651428223, 1.23, -38.39, -16.50, 1.38, -36.56, -36.12, -2.10, -2.27, SPS, 10
188.70, 39.31336593628, -77.03651428223, 1.05, -38.39, -16.00, 1.38, -36.56, -36.12, -2.10, -2.27, SPS, 10
188.90, 39.31336975098, -77.03652191162, 0.78, -38.39, -15.38, 1.19, -36.56, -36.12, -2.10, -2.27, SPS, 10
189.11, 39.31336975098, -77.03652191162, 0.64, -38.39, -15.06, 1.13, -36.56, -36.12, -2.10, -2.27, SPS, 10
189.31, 39.31336975098, -77.03652191162, 0.60, -38.39, -14.75, 1.13, -36.56, -36.12, -2.10, -2.27, SPS, 10
189.52, 39.31336975098, -77.03652191162, 0.53, -38.39, -14.56, 1.06, -36.56, -36.12, -2.10, -2.27, SPS, 10
189.72, 39.31336975098, -77.03652191162, 0.48, -38.39, -14.38, 1.06, -36.56, -36.12, -2.10, -2.27, SPS, 10
189.92, 39.31336975098, -77.03652191162, 0.42, -38.45, -12.38, 0.75, -36.56, -36.18, -2.10, -2.27, SPS, 10
190.13, 39.31336975098, -77.03652191162, 0.27, -38.45, -11.75, 0.63, -36.56, -36.18, -2.10, -2.27, SPS, 10
190.33, 39.31336975098, -77.03652191162, 0.25, -38.45, -11.50, 0.63, -34.48, -36.18, -2.10, -2.27, SPS, 10
190.54, 39.31336975098, -77.03652191162, 0.23, -38.45, -11.25, 0.56, -33.47, -36.18, -2.10, -2.27, SPS, 10
190.74, 39.31336975098, -77.03652191162, 0.21, -38.45, -11.06, 0.50, -31.71, -36.18, -2.10, -2.27, SPS, 10
190.94, 39.31336975098, -77.03652191162, 0.19, -38.45, -10.88, 0.50, -31.97, -36.18, -2.10, -2.27, SPS, 10
191.15, 39.31336975098, -77.03652191162, 0.16, -38.45, -10.81, 0.44, -31.21, -36.18, -2.10, -2.27, SPS, 10
191.35, 39.31336975098, -77.03652191162, 0.14, -38.45, -10.75, 0.44, -33.83, -36.18, -2.10, -2.27, SPS, 10
191.51, 39.31336975098, -77.03652191162, 0.14, -38.45, -10.69, 0.44, -16.73, -36.18, -2.10, -2.27, SPS, 10
191.71, 39.31336975098, -77.03652191162, 0.14, -38.45, -10.63, 0.38, -16.77, -36.18, -2.10, -2.27, SPS, 10
191.91, 39.31336975098, -77.03652191162, 0.14, -38.45, -10.56, 0.38, -8.12, -36.18, -2.10, -2.27, SPS, 10
192.12, 39.31336975098, -77.03652191162, 0.13, -38.45, -10.56, 0.38, -11.20, -36.18, -2.10, -2.27, SPS, 10
192.32, 39.31336975098, -77.03652191162, 0.12, -38.45, -10.56, 0.38, -13.62, -36.18, -2.10, -2.27, SPS, 10
192.53, 39.31336975098, -77.03652191162, 0.12, -38.45, -10.56, 0.38, -16.65, -36.18, -2.10, -2.27, SPS, 10
192.73, 39.31336975098, -77.03652191162, 0.11, -38.45, -10.56, 0.38, -18.87, -36.18, -2.10, -2.27, SPS, 10
192.93, 39.31336975098, -77.03652191162, 0.08, -38.39, -10.56, 0.31, -19.21, -36.12, -2.10, -2.27, SPS, 10
193.14, 39.31336975098, -77.03652191162, 0.07, -38.39, -10.56, 0.31, -19.21, -36.12, -2.10, -2.27, SPS, 10
193.34, 39.31336975098, -77.03652191162, 0.07, -38.39, -10.56, 0.31, -19.21, -36.12, -2.10, -2.27, SPS, 10
193.55, 39.31336975098, -77.03652191162, 0.07, -38.39, -10.56, 0.31, -19.21, -36.12, -2.10, -2.27, SPS, 10
193.75, 39.31336975098, -77.03652191162, 0.06, -38.39, -10.56, 0.31, -19.21, -36.12, -2.10, -2.27, SPS, 10
193.95, 39.31336975098, -77.03652191162, 0.06, -38.39, -10.56, 0.31, -19.21, -36.12, -2.10, -2.27, SPS, 10
194.16, 39.31336975098, -77.03652191162, 0.05, -38.39, -10.56, 0.25, -19.21, -36.12, -2.10, -2.27, SPS, 10
194.36, 39.31336975098, -77.03652191162, 0.04, -38.39, -10.56, 0.25, -19.21, -36.12, -2.10, -2.27, SPS, 10
194.57, 39.31336975098, -77.03652191162, 0.04, -38.39, -10.56, 0.25, -19.21, -36.12, -2.10, -2.27, SPS, 10
194.77, 39.31336975098, -77.03652191162, 0.05, -38.39, -10.56, 0.25, -19.21, -36.12, -2.10, -2.27, SPS, 10
194.92, 39.31336975098, -77.03652191162, 0.05, -38.39, -10.56, 0.25, -19.21, -36.12, -2.10, -2.27, SPS, 10
195.13, 39.31336975098, -77.03652191162, 0.04, -38.39, -10.56, 0.25, -19.21, -36.12, -2.10, -2.27, SPS, 10
195.33, 39.31336975098, -77.03652191162, 0.03, -38.39, -10.56, 0.25, -19.21, -36.12, -2.10, -2.27, SPS, 10
195.53, 39.31336975098, -77.03652191162, 0.03, -38.39, -10.56, 0.19, -19.21, -36.12, -2.10, -2.27, SPS, 10
195.74, 39.31337356567, -77.03652191162, 0.09, -38.39, -10.56, 0.19, -19.21, -36.12, -2.10, -2.27, SPS, 10
195.94, 39.31337356567, -77.03652191162, 0.07, -38.39, -10.56, 0.19, -19.21, -36.12, -2.10, -2.27, SPS, 10
196.15, 39.31336975098, -77.03652191162, 0.06, -38.39, -10.56, 0.19, -19.21, -36.12, -2.10, -2.27, SPS, 10
196.35, 39.31336975098, -77.03652191162, 0.06, -38.39, -10.56, 0.13, -19.21, -36.12, -2.10, -2.27, SPS, 10
196.55, 39.31336975098, -77.03652191162, 0.05, -38.39, -10.56, 0.13, -19.21, -36.12, -2.10, -2.27, SPS, 10
196.76, 39.31336975098, -77.03652191162, 0.05, -38.39, -10.56, 0.13, -19.21, -36.12, -2.10, -2.27, SPS, 10
196.96, 39.31336975098, -77.03652191162, 0.04, -38.39, -10.56, 0.13, -19.21, -36.12, -2.10, -2.27, SPS, 10
197.17, 39.31337356567, -77.03652191162, 0.05, -38.39, -10.56, 0.13, -19.21, -36.12, -2.10, -2.27, SPS, 10
197.37, 39.31337356567, -77.03652191162, 0.04, -38.39, -10.56, 0.06, -19.21, -36.12, -2.10, -2.27, SPS, 10
197.57, 39.31337356567, -77.03652191162, 0.04, -38.39, -10.56, 0.06, -19.21, -36.12, -2.10, -2.27, SPS, 10
197.78, 39.31337356567, -77.03652191162, 0.03, -38.39, -10.56, 0.00, -19.21, -36.12, -2.10, -2.27, SPS, 10
197.98, 39.31337356567, -77.03652191162, 0.03, -38.39, -10.56, 0.00, -19.21, -36.12, -2.10, -2.27, SPS, 10
198.19, 39.31336975098, -77.03652191162, 0.02, -38.39, -10.56, 0.00, -19.21, -36.12, -2.10, -2.27, SPS, 10
198.34, 39.31337356567, -77.03652191162, 0.03, -38.39, -10.56, 0.00, -19.21, -36.12, -2.10, -2.27, SPS, 10
198.54, 39.31337356567, -77.03652191162, 0.04, -38.39, -10.56, 0.00, -19.21, -36.12, -2.10, -2.27, SPS, 10
198.75, 39.31336975098, -77.03652191162, 0.03, -38.39, -10.56, 0.00, -19.21, -36.12, -2.10, -2.27, SPS, 10
198.95, 39.31336975098, -77.03652191162, 0.03, -38.39, -10.56, 0.00, -19.21, -36.12, -2.10, -2.27, SPS, 10
199.16, 39.31336975098, -77.03652191162, 0.03, -38.39, -10.56, 0.00, -19.21, -36.12, -2.10, -2.27, SPS, 10
199.36, 39.31336975098, -77.03652191162, 0.02, -38.39, -10.56, 0.00, -19.21, -36.12, -2.10, -2.27, SPS, 10
199.56, 39.31336975098, -77.03652191162, 0.01, -38.39, -10.56, 0.00, -19.21, -36.12, -2.10, -2.27, SPS, 10
199.77, 39.31336975098, -77.03652191162, 0.01, -38.39, -10.56, 0.00, -19.21, -36.12, -2.10, -2.27, SPS, 10
199.97, 39.31336975098, -77.03652191162, 0.06, -38.39, -10.56, -0.06, -19.21, -36.12, -2.10, -2.27, SPS, 10
200.18, 39.31336975098, -77.03652191162, 0.04, -38.39, -10.56, -0.06, -19.21, -36.12, -2.10, -2.27, SPS, 10
200.38, 39.31336975098, -77.03652191162, 0.04, -38.39, -10.50, -0.06, -19.21, -36.12, -2.10, -2.27, SPS, 10
200.58, 39.31336975098, -77.03652191162, 0.04, -38.39, -10.44, 0.00, -19.21, -36.12, -2.10, -2.27, SPS, 10
200.79, 39.31336975098, -77.03652191162, 0.03, -38.39, -10.44, 0.00, -19.21, -36.12, -2.10, -2.27, SPS, 10
200.99, 39.31336975098, -77.03652191162, 0.03, -38.32, -10.38, 0.00, -19.21, -36.06, -2.10, -2.27, SPS, 10
201.20, 39.31336593628, -77.03652191162, 0.06, -38.32, -10.38, 0.00, -19.21, -36.06, -2.10, -2.27, SPS, 10
201.40, 39.31336593628, -77.03652191162, 0.07, -38.32, -10.31, 0.00, -19.21, -36.06, -2.10, -2.27, SPS, 10
201.60, 39.31336593628, -77.03652191162, 0.06, -38.32, -10.31, 0.06, -19.21, -36.06, -2.10, -2.27, SPS, 10
201.76, 39.31336593628, -77.03652191162, 0.06, -38.32, -10.31, 0.00, -19.21, -36.06, -2.10, -2.27, SPS, 10
201.96, 39.31336593628, -77.03652191162, 0.06, -38.32, -10.31, 0.00, -19.21, -36.06, -2.10, -2.27, SPS, 10
202.16, 39.31336593628, -77.03652191162, 0.06, -38.32, -10.31, 0.00, -19.21, -36.06, -2.10, -2.27, SPS, 10
202.37, 39.31336593628, -77.03652191162, 0.06, -38.32, -10.31, 0.00, -19.21, -36.06, -2.10, -2.27, SPS, 10
202.57, 39.31336593628, -77.03652191162, 0.06, -38.32, -10.31, 0.00, -19.21, -36.06, -2.10, -2.27, SPS, 10
202.78, 39.31336593628, -77.03652191162, 0.07, -38.32, -10.31, 0.00, -19.21, -36.06, -2.10, -2.27, SPS, 10
202.98, 39.31336593628, -77.03652191162, 0.06, -38.32, -10.31, 0.00, -19.21, -36.06, -2.10, -2.27, SPS, 10
203.18, 39.31336593628, -77.03652191162, 0.06, -38.32, -10.31, 0.00, -19.21, -36.06, -2.10, -2.27, SPS, 10
203.39, 39.31336212158, -77.03652191162, 0.06, -38.32, -10.31, -0.06, -19.21, -36.06, -2.10, -2.27, SPS, 10
203.59, 39.31336212158, -77.03652191162, 0.05, -38.32, -10.31, -0.06, -19.21, -36.06, -2.10, -2.27, SPS, 10
203.80, 39.31336212158, -77.03652191162, 0.04, -38.32, -10.31, -0.06, -19.21, -36.06, -2.10, -2.27, SPS, 10
204.00, 39.31336212158, -77.03652191162, 0.04, -38.32, -10.31, 0.00, -19.21, -36.06, -2.10, -2.27, SPS, 10
204.20, 39.31336212158, -77.03652191162, 0.04, -38.32, -10.31, 0.00, -19.21, -36.06, -2.10, -2.27, SPS, 10
204.41, 39.31336212158, -77.03652191162, 0.01, -38.32, -10.31, 0.00, -19.21, -36.06, -2.10, -2.27, SPS, 10
204.61, 39.31336212158, -77.03652191162, 0.01, -38.32, -10.31, 0.00, -19.21, -36.06, -2.10, -2.27, SPS, 10
204.82, 39.31336212158, -77.03652191162, 0.01, -38.32, -10.31, 0.00, -19.21, -36.06, -2.10, -2.27, SPS, 10
205.02, 39.31336212158, -77.03652191162, 0.00, -38.32, -10.31, 0.00, -19.21, -36.06, -2.10, -2.27, SPS, 10
205.17, 39.31336212158, -77.03652191162, 0.00, -38.32, -10.31, 0.00, -19.21, -36.06, -2.10, -2.27, SPS, 10
205.38, 39.31336212158, -77.03652191162, 0.00, -38.32, -10.25, 0.00, -19.21, -36.06, -2.10, -2.27, SPS, 10
205.58, 39.31335830688, -77.03652191162, 0.01, -38.32, -10.25, 0.00, -19.21, -36.06, -2.10, -2.27, SPS, 10
205.79, 39.31335830688, -77.03652191162, 0.01, -38.32, -10.25, 0.00, -19.21, -36.06, -2.10, -2.27, SPS, 10
205.99, 39.31335830688, -77.03652191162, 0.00, -38.32, -10.19, 0.00, -19.21, -36.06, -2.10, -2.27, SPS, 10
206.19, 39.31335830688, -77.03652191162, 0.00, -38.32, -10.19, 0.00, -19.21, -36.06, -2.10, -2.27, SPS, 10
206.40, 39.31335830688, -77.03652191162, 0.00, -38.32, -10.19, 0.00, -19.21, -36.06, -2.10, -2.27, SPS, 10
206.60, 39.31335830688, -77.03652191162, 0.00, -38.32, -10.19, 0.00, -19.21, -36.06, -2.10, -2.27, SPS, 10
206.81, 39.31335830688, -77.03652191162, 0.00, -38.32, -10.19, 0.00, -19.21, -36.06, -2.10, -2.27, SPS, 10
207.01, 39.31335830688, -77.03652191162, 0.01, -38.32, -10.19, -0.06, -19.21, -36.06, -2.10, -2.27, SPS, 10
207.21, 39.31335830688, -77.03652191162, 0.01, -38.32, -10.19, -0.06, -19.21, -36.06, -2.10, -2.27, SPS, 10
207.42, 39.31335830688, -77.03652191162, 0.02, -38.32, -10.19, -0.06, -19.21, -36.06, -2.10, -2.27, SPS, 10
207.62, 39.31335830688, -77.03652191162, 0.02, -38.26, -10.19, -0.13, -19.21, -35.99, -2.10, -2.27, SPS, 10
207.83, 39.31335830688, -77.03652191162, 0.02, -38.26, -10.19, -0.13, -19.21, -35.99, -2.10, -2.27, SPS, 10
208.03, 39.31335830688, -77.03652191162, 0.02, -38.26, -10.19, -0.13, -19.21, -35.99, -2.10, -2.27, SPS, 10
208.23, 39.31335830688, -77.03652191162, 0.02, -38.26, -10.19, -0.13, -19.21, -35.99, -2.10, -2.27, SPS, 10
208.44, 39.31335449219, -77.03652191162, 0.01, -38.26, -10.19, -0.19, -19.21, -35.99, -2.10, -2.27, SPS, 10
208.59, 39.31335449219, -77.03652191162, 0.01, -38.26, -10.19, -0.19, -19.21, -35.99, -2.10, -2.27, SPS, 10
208.79, 39.31335830688, -77.03652191162, 0.02, -38.26, -10.19, -0.19, -19.21, -35.99, -2.10, -2.27, SPS, 10
209.00, 39.31335449219, -77.03652191162, 0.02, -38.26, -10.19, -0.19, -19.21, -35.99, -2.10, -2.27, SPS, 10
209.20, 39.31335449219, -77.03652191162, 0.02, -38.26, -10.19, -0.19, -19.21, -35.99, -2.10, -2.27, SPS, 10
209.41, 39.31335449219, -77.03652191162, 0.02, -38.26, -10.19, -0.19, -19.21, -35.99, -2.10, -2.27, SPS, 10
209.61, 39.31335449219, -77.03652191162, 0.02, -38.26, -10.19, -0.19, -19.21, -35.99, -2.10, -2.27, SPS, 10
209.81, 39.31335449219, -77.03652191162, 0.01, -38.26, -10.00, -0.19, -19.21, -35.99, -2.10, -2.27, SPS, 10
210.02, 39.31335449219, -77.03652191162, 0.01, -38.26, -9.81, -0.19, -19.21, -35.99, -2.10, -2.27, SPS, 10
210.22, 39.31335449219, -77.03652191162, 0.01, -38.26, -9.69, -0.13, -19.21, -35.99, -2.10, -2.27, SPS, 10
210.43, 39.31335449219, -77.03652191162, 0.02, -38.26, -9.63, -0.06, -19.21, -35.99, -2.10, -2.27, SPS, 10
210.63, 39.31335449219, -77.03652191162, 0.03, -38.26, -9.50, -0.06, -19.21, -35.99, -2.10, -2.27, SPS, 10
210.83, 39.31335449219, -77.03652191162, 0.06, -38.26, -9.44, 0.00, -19.21, -35.99, -2.10, -2.27, SPS, 10
211.04, 39.31335449219, -77.03652191162, 0.09, -38.26, -9.31, 0.00, -19.21, -35.99, -2.10, -2.27, SPS, 10
211.24, 39.31335449219, -77.03652191162, 0.16, -38.26, -9.25, 0.06, -19.21, -35.99, -2.10, -2.27, SPS, 10
211.45, 39.31335449219, -77.03652191162, 0.19, -38.26, -9.19, 0.06, -19.21, -35.99, -2.10, -2.27, SPS, 10
211.65, 39.31335449219, -77.03652191162, 0.17, -38.26, -9.19, 0.13, -19.21, -35.99, -2.10, -2.27, SPS, 10
211.85, 39.31335830688, -77.03652191162, 0.21, -38.26, -9.13, 0.19, -19.21, -35.99, -2.10, -2.27, SPS, 10
212.01, 39.31335830688, -77.03652191162, 0.25, -38.26, -9.13, 0.19, -19.21, -35.99, -2.10, -2.27, SPS, 10
212.21, 39.31335830688, -77.03652191162, 0.29, -38.26, -9.00, 0.19, -19.21, -35.99, -2.10, -2.27, SPS, 10
212.42, 39.31335830688, -77.03652954102, 0.33, -38.26, -8.88, 0.25, -19.21, -35.99, -2.10, -2.27, SPS, 10
212.62, 39.31335830688, -77.03652954102, 0.38, -38.26, -8.81, 0.19, -19.21, -35.99, -2.10, -2.27, SPS, 10
212.82, 39.31335830688, -77.03652954102, 0.44, -38.26, -8.69, 0.25, -62.41, -35.99, -2.10, -2.27, SPS, 10
213.03, 39.31336212158, -77.03652954102, 0.51, -38.26, -8.25, 0.25, -57.97, -35.99, -2.10, -2.27, SPS, 10
213.23, 39.31336593628, -77.03653717041, 0.59, -38.26, -7.44, 0.13, -54.83, -35.99, -2.10, -2.27, SPS, 10
213.44, 39.31336593628, -77.03653717041, 0.65, -38.26, -6.50, 0.00, -52.33, -35.99, -2.10, -2.27, SPS, 10
213.64, 39.31336593628, -77.03653717041, 0.74, -38.26, -5.56, 0.00, -50.35, -35.99, -2.10, -2.27, SPS, 10
213.84, 39.31336975098, -77.03654479980, 1.45, -38.26, -5.13, 0.00, -42.91, -35.99, -2.10, -2.27, SPS, 10
214.05, 39.31337356567, -77.03654479980, 1.61, -38.26, -4.88, 0.00, -42.30, -35.99, -2.10, -2.27, SPS, 10
214.25, 39.31337738037, -77.03655242920, 1.83, -38.26, -4.75, 0.13, -43.61, -35.99, -2.10, -2.27, SPS, 10
214.46, 39.31337738037, -77.03655242920, 2.07, -40.43, -4.81, 0.25, -42.60, -35.99, -6.61, -4.44, SPS, 10
214.66, 39.31338119507, -77.03656005859, 2.13, -43.05, -5.38, 0.19, -44.06, -35.99, -8.07, -7.06, SPS, 10
214.86, 39.31338500977, -77.03656005859, 2.22, -44.31, -6.19, 0.81, -45.11, -36.06, -9.05, -8.26, SPS, 10
215.07, 39.31338500977, -77.03656005859, 2.40, -43.83, -6.94, 1.25, -43.32, -35.99, -8.02, -7.83, SPS, 10
215.27, 39.31338882446, -77.03656005859, 2.38, -42.90, -7.13, 1.38, -43.66, -36.06, -6.11, -6.85, SPS, 10
215.42, 39.31339263916, -77.03656768799, 2.38, -43.28, -7.25, 1.56, -42.22, -36.06, -6.16, -6.69, SPS, 10
215.63, 39.31339645386, -77.03656768799, 2.40, -42.71, -7.44, 1.63, -43.19, -36.06, -7.13, -6.89, SPS, 10
215.83, 39.31340026855, -77.03657531738, 2.33, -43.61, -7.69, 1.81, -43.68, -36.06, -7.62, -7.55, SPS, 10
216.04, 39.31340408325, -77.03658294678, 2.40, -43.81, -8.38, 2.56, -43.85, -36.06, -7.79, -7.75, SPS, 10
216.24, 39.31340789795, -77.03658294678, 2.45, -44.38, -9.25, 2.81, -44.66, -36.12, -8.54, -8.26, SPS, 10
216.44, 39.31341171265, -77.03659057617, 2.47, -44.97, -10.06, 3.38, -45.10, -36.12, -8.98, -8.85, SPS, 10
216.65, 39.31341552734, -77.03659820557, 2.35, -44.97, -10.75, 3.75, -44.71, -36.18, -8.59, -8.79, SPS, 10
216.85, 39.31341934204, -77.03659820557, 2.26, -43.98, -11.50, 3.94, -43.07, -36.18, -6.89, -7.80, SPS, 10
217.06, 39.31341934204, -77.03659820557, 2.10, -43.08, -12.19, 4.13, -42.61, -36.24, -6.43, -6.83, SPS, 10
217.26, 39.31341934204, -77.03659820557, 2.09, -44.63, -12.44, 4.44, -44.71, -36.24, -8.47, -8.39, SPS, 10
217.46, 39.31342315674, -77.03660583496, 1.87, -44.63, -12.56, 4.63, -43.61, -36.24, -8.47, -8.39, SPS, 10
217.67, 39.31342697144, -77.03660583496, 1.58, -44.69, -12.75, 4.56, -43.00, -36.31, -8.47, -8.39, SPS, 10
217.87, 39.31342697144, -77.03660583496, 1.42, -44.88, -12.75, 4.56, -43.45, -36.49, -8.47, -8.39, SPS, 10
218.08, 39.31343078613, -77.03661346436, 1.19, -45.19, -12.81, 4.56, -45.58, -36.81, -8.47, -8.39, SPS, 10
218.28, 39.31343078613, -77.03661346436, 0.75, -45.57, -12.56, 4.25, -41.60, -37.18, -8.47, -8.39, SPS, 10
218.48, 39.31343078613, -77.03661346436, 0.79, -46.13, -10.81, 3.75, -38.33, -37.74, -8.47, -8.39, SPS, 10
218.69, 39.31343460083, -77.03661346436, 0.84, -46.82, -9.88, 3.25, -41.87, -38.43, -8.47, -8.39, SPS, 10
218.84, 39.31343460083, -77.03662109375, 0.85, -47.57, -9.50, 2.63, -41.97, -39.18, -8.47, -8.39, SPS, 10
219.05, 39.31343460083, -77.03662109375, 0.90, -48.69, -9.00, 2.31, -42.63, -40.31, -8.47, -8.39, SPS, 10
219.25, 39.31343460083, -77.03662109375, 0.93, -50.07, -8.25, 2.06, -43.57, -41.68, -8.47, -8.39, SPS, 10
219.45, 39.31343460083, -77.03662872314, 0.95, -51.69, -7.38, 1.31, -45.58, -43.31, -8.47, -8.39, SPS, 10
219.66, 39.31343841553, -77.03662872314, 0.94, -53.63, -6.69, 0.88, -44.85, -45.24, -8.47, -8.39, SPS, 10
219.86, 39.31343841553, -77.03663635254, 1.28, -56.01, -6.19, 0.69, -62.42, -47.62, -8.47, -8.39, SPS, 10
220.07, 39.31343841553, -77.03663635254, 1.51, -58.51, -6.19, 0.44, -71.82, -50.12, -8.47, -8.39, SPS, 10
220.27, 39.31343841553, -77.03663635254, 2.05, -61.32, -6.56, -0.13, -77.85, -52.93, -8.47, -8.39, SPS, 10
220.47, 39.31343841553, -77.03664398193, 2.27, -75.89, -6.88, 0.31, -80.16, -56.06, -23.40, -19.84, SPS, 10
220.68, 39.31344223022, -77.03665161133, 2.38, -82.01, -7.31, 0.50, -84.01, -59.49, -23.52, -22.51, SPS, 10
220.88, 39.31344223022, -77.03665924072, 2.56, -86.41, -7.69, 0.50, -86.31, -62.87, -23.97, -23.54, SPS, 10
221.09, 39.31344223022, -77.03666687012, 2.63, -89.93, -8.00, 0.38, -89.44, -66.43, -23.51, -23.50, SPS, 10
221.29, 39.31344223022, -77.03667449951, 2.65, -92.53, -8.50, -0.06, -89.99, -70.31, -21.20, -22.23, SPS, 10
221.49, 39.31344223022, -77.03668212891, 2.86, -95.09, -8.44, -0.25, -94.74, -73.99, -21.24, -21.10, SPS, 10
221.70, 39.31344223022, -77.03668212891, 2.91, -98.26, -8.38, -0.31, -97.28, -77.93, -19.74, -20.33, SPS, 10
221.90, 39.31343841553, -77.03668975830, 3.05, -101.51, -8.19, -0.38, -101.88, -82.06, -19.07, -19.45, SPS, 10
222.11, 39.31343841553, -77.03669738770, 3.20, -105.51, -8.00, -0.63, -104.67, -85.99, -19.39, -19.52, SPS, 10
222.26, 39.31343841553, -77.03670501709, 3.32, -107.37, -8.00, -0.75, -105.78, -88.93, -17.79, -18.44, SPS, 10
222.46, 39.31343460083, -77.03671264648, 3.43, -109.25, -7.81, -0.75, -107.28, -92.68, -15.54, -16.57, SPS, 10
222.67, 39.31343460083, -77.03672027588, 3.47, -112.99, -7.81, -0.31, -112.55, -96.31, -17.06, -16.68, SPS, 10
222.87, 39.31343078613, -77.03672790527, 3.63, -114.17, -7.94, -0.13, -113.93, -99.49, -14.18, -14.68, SPS, 10
223.07, 39.31342697144, -77.03673553467, 3.76, -115.89, -7.88, -0.06, -115.60, -102.43, -12.73, -13.46, SPS, 10
223.28, 39.31342315674, -77.03674316406, 3.90, -117.76, -8.19, 0.38, -117.85, -105.37, -11.84, -12.39, SPS, 10
223.48, 39.31341934204, -77.03675079346, 4.06, -120.47, -8.13, 0.44, -121.08, -107.62, -13.28, -12.86, SPS, 10
223.69, 39.31341934204, -77.03675842285, 4.04, -122.74, -8.06, 0.56, -122.10, -109.74, -12.83, -12.99, SPS, 10
223.89, 39.31341552734, -77.03676605225, 4.12, -122.73, -8.19, 0.81, -121.96, -111.49, -9.79, -11.23, SPS, 10
224.09, 39.31341171265, -77.03677368164, 4.24, -124.22, -8.31, 0.94, -123.82, -113.24, -11.11, -10.98, SPS, 10
224.30, 39.31340408325, -77.03678131104, 4.32, -125.19, -8.19, 0.75, -125.01, -114.68, -10.24, -10.51, SPS, 10
224.50, 39.31340026855, -77.03679656982, 4.43, -126.25, -8.13, 0.81, -125.98, -115.93, -10.22, -10.32, SPS, 10
224.71, 39.31339645386, -77.03679656982, 4.51, -126.92, -8.25, 1.31, -126.27, -116.99, -9.68, -9.93, SPS, 10
224.91, 39.31339263916, -77.03680419922, 4.66, -127.16, -8.31, 1.00, -127.02, -117.87, -8.99, -9.30, SPS, 10
225.11, 39.31338500977, -77.03681945801, 4.72, -127.65, -8.38, 0.94, -127.49, -118.74, -8.59, -8.91, SPS, 10
225.32, 39.31337738037, -77.03682708740, 4.87, -129.27, -8.44, 0.63, -129.28, -119.49, -10.72, -9.77, SPS, 9
225.52, 39.31337738037, -77.03683471680, 4.98, -129.43, -8.50, 0.50, -128.81, -120.12, -8.83, -9.31, SPS, 9
225.68, 39.31336975098, -77.03684234619, 5.12, -129.34, -8.63, 0.75, -128.80, -120.49, -8.69, -8.84, SPS, 9
225.88, 39.31336212158, -77.03684997559, 5.18, -129.21, -8.69, 0.88, -128.80, -120.87, -8.14, -8.34, SPS, 9
226.08, 39.31335830688, -77.03686523438, 5.30, -129.06, -8.88, 0.69, -128.71, -121.12, -7.74, -7.94, SPS, 9
226.29, 39.31335067749, -77.03687286377, 5.34, -128.77, -8.94, 0.69, -128.54, -121.18, -7.42, -7.59, SPS, 9
226.49, 39.31334304810, -77.03688049316, 5.39, -128.58, -8.94, 0.75, -128.34, -121.24, -7.20, -7.34, SPS, 9
226.70, 39.31333923340, -77.03689575195, 5.43, -128.46, -9.13, 0.94, -128.52, -121.18, -7.34, -7.31, SPS, 9
226.90, 39.31333541870, -77.03690338135, 5.52, -128.60, -9.00, 1.13, -128.37, -121.24, -7.13, -7.24, SPS, 9
227.10, 39.31332778931, -77.03691864014, 5.56, -128.37, -9.00, 1.25, -127.98, -121.24, -6.74, -6.93, SPS, 9
227.31, 39.31332015991, -77.03691864014, 5.62, -127.93, -9.00, 1.19, -127.36, -121.18, -6.18, -6.46, SPS, 10
227.51, 39.31331634521, -77.03693389893, 5.73, -127.47, -9.06, 1.31, -127.07, -121.24, -5.83, -6.03, SPS, 9
227.72, 39.31330871582, -77.03694915771, 5.85, -127.16, -9.00, 1.50, -127.33, -121.12, -6.21, -6.13, SPS, 9
227.92, 39.31330108643, -77.03695678711, 5.99, -127.09, -9.00, 1.31, -127.29, -120.87, -6.42, -6.32, SPS, 10
228.12, 39.31329727173, -77.03696441650, 6.10, -126.98, -9.06, 1.19, -127.34, -120.56, -6.78, -6.60, SPS, 10
228.33, 39.31328964233, -77.03697967529, 6.22, -127.05, -9.13, 1.19, -127.27, -120.31, -6.96, -6.85, SPS, 9
228.53, 39.31327819824, -77.03699493408, 6.36, -126.96, -9.06, 1.13, -127.04, -119.99, -6.98, -6.97, SPS, 10
228.74, 39.31327056885, -77.03700256348, 6.48, -126.57, -9.06, 1.19, -126.65, -119.62, -6.97, -6.95, SPS, 10
228.94, 39.31326293945, -77.03701782227, 6.69, -126.00, -9.00, 1.31, -125.99, -119.31, -6.56, -6.70, SPS, 10
229.09, 39.31325912476, -77.03702545166, 6.76, -125.77, -9.00, 1.19, -125.72, -119.12, -6.60, -6.63, SPS, 10
229.30, 39.31325531006, -77.03703308105, 6.91, -125.51, -8.94, 1.13, -125.53, -118.81, -6.72, -6.71, SPS, 9
229.50, 39.31324768066, -77.03705596924, 7.00, -125.12, -8.81, 1.19, -125.09, -118.43, -6.66, -6.68, SPS, 9
229.70, 39.31324005127, -77.03707122803, 7.00, -124.83, -8.81, 1.31, -124.93, -118.12, -6.81, -6.76, SPS, 9
229.91, 39.31323242188, -77.03707885742, 7.04, -124.77, -8.75, 1.13, -125.20, -117.87, -7.33, -7.12, SPS, 9
230.11, 39.31322479248, -77.03709411621, 7.07, -125.03, -8.75, 1.13, -125.14, -117.81, -7.33, -7.28, SPS, 10
230.32, 39.31322097778, -77.03710937500, 7.12, -125.07, -8.75, 1.13, -125.08, -117.81, -7.27, -7.27, SPS, 10
230.52, 39.31321716309, -77.03711700439, 7.13, -125.02, -8.81, 1.06, -124.80, -117.81, -6.99, -7.10, SPS, 10
230.72, 39.31320953369, -77.03712463379, 7.04, -124.85, -8.88, 1.00, -125.10, -117.81, -7.29, -7.17, SPS, 10
230.93, 39.31320190430, -77.03714752197, 7.08, -125.06, -8.94, 0.94, -124.88, -117.81, -7.07, -7.16, SPS, 10
231.13, 39.31319046021, -77.03716278076, 7.20, -124.87, -8.88, 0.75, -124.95, -117.74, -7.14, -7.13, SPS, 10
231.34, 39.31318283081, -77.03717803955, 7.31, -124.96, -8.94, 0.75, -124.80, -117.74, -7.06, -7.22, SPS, 10
231.54, 39.31317901611, -77.03719329834, 7.33, -124.57, -8.88, 0.75, -124.41, -117.62, -6.73, -6.96, SPS, 10
231.74, 39.31316757202, -77.03720092773, 7.36, -124.13, -8.81, 0.63, -124.21, -117.49, -6.59, -6.63, SPS, 9
231.95, 39.31315994263, -77.03722381592, 7.41, -123.73, -8.75, 0.63, -123.66, -117.24, -6.35, -6.49, SPS, 9
232.15, 39.31315612793, -77.03723144531, 7.55, -123.50, -8.63, 0.63, -123.52, -116.93, -6.53, -6.57, SPS, 10
232.36, 39.31314468384, -77.03724670410, 7.56, -122.92, -8.50, 0.56, -122.87, -116.56, -6.19, -6.37, SPS, 10
232.51, 39.31314086914, -77.03725433350, 7.58, -122.72, -8.38, 0.56, -122.58, -116.31, -6.27, -6.34, SPS, 10
232.71, 39.31313705444, -77.03727722168, 7.62, -122.21, -8.31, 0.75, -122.47, -115.93, -6.54, -6.41, SPS, 10
232.92, 39.31312942505, -77.03728485107, 7.69, -122.24, -8.25, 0.69, -122.64, -115.56, -7.08, -6.89, SPS, 10
233.12, 39.31312179565, -77.03730010986, 7.79, -122.14, -8.31, 1.00, -121.81, -115.24, -6.57, -6.73, SPS, 10
233.33, 39.31311416626, -77.03731536865, 7.83, -121.56, -8.38, 1.56, -121.61, -114.87, -6.74, -6.72, SPS, 9
233.53, 39.31310272217, -77.03733825684, 7.94, -121.14, -8.38, 1.56, -121.21, -114.49, -6.65, -6.65, SPS, 9
233.73, 39.31309890747, -77.03735351563, 7.96, -120.36, -8.31, 1.81, -119.92, -114.18, -5.68, -6.18, SPS, 9
233.94, 39.31309127808, -77.03736877441, 7.99, -120.17, -8.31, 1.69, -120.32, -113.93, -6.33, -6.24, SPS, 9
234.14, 39.31308364868, -77.03739166260, 7.99, -119.71, -8.38, 1.31, -119.80, -113.62, -6.12, -6.09, SPS, 9
234.35, 39.31307601929, -77.03739929199, 8.14, -119.64, -8.31, 1.19, -119.79, -113.31, -6.42, -6.34, SPS, 9
234.55, 39.31306838989, -77.03742218018, 8.16, -119.53, -8.44, 0.69, -119.61, -113.12, -6.43, -6.41, SPS, 10
234.75, 39.31306076050, -77.03742980957, 8.20, -119.38, -8.50, 0.31, -119.28, -113.06, -6.22, -6.32, SPS, 10
234.96, 39.31305694580, -77.03745269775, 8.23, -119.36, -8.44, 0.63, -119.36, -113.06, -6.37, -6.30, SPS, 10
235.16, 39.31304931641, -77.03746795654, 8.24, -119.09, -8.19, 0.44, -118.81, -112.99, -5.82, -6.10, SPS, 10
235.37, 39.31304168701, -77.03748321533, 8.28, -119.11, -8.00, 0.31, -119.24, -112.87, -6.31, -6.24, SPS, 10
235.57, 39.31303405762, -77.03750610352, 8.27, -118.95, -7.81, 0.56, -119.29, -112.74, -6.39, -6.21, SPS, 10
235.77, 39.31302642822, -77.03751373291, 8.27, -119.24, -7.69, 0.44, -119.74, -112.68, -6.75, -6.56, SPS, 10
235.93, 39.31302261353, -77.03752136230, 8.28, -119.40, -7.69, 0.50, -119.52, -112.56, -6.96, -6.90, SPS, 10
236.13, 39.31301116943, -77.03755187988, 8.33, -119.17, -7.56, 0.88, -119.13, -112.43, -6.64, -6.74, SPS, 10
236.33, 39.31300354004, -77.03756713867, 8.38, -118.92, -7.63, 0.81, -118.93, -112.31, -6.56, -6.62, SPS, 9
236.54, 39.31299591064, -77.03758239746, 8.49, -119.64, -7.63, 0.88, -119.80, -112.12, -7.62, -7.52, SPS, 9
236.74, 39.31298828125, -77.03759765625, 8.45, -119.17, -7.44, 1.00, -119.16, -111.87, -7.23, -7.30, SPS, 9
236.95, 39.31298065186, -77.03762054443, 8.44, -119.24, -7.56, 0.69, -119.24, -111.62, -7.56, -7.62, SPS, 9
237.15, 39.31297683716, -77.03763580322, 8.42, -118.43, -7.44, 0.88, -118.21, -111.37, -6.78, -7.06, SPS, 9
237.35, 39.31296539307, -77.03765869141, 8.41, -117.79, -7.25, 1.25, -117.69, -111.12, -6.51, -6.67, SPS, 9
237.56, 39.31296157837, -77.03767395020, 8.39, -117.36, -7.19, 0.88, -117.37, -110.81, -6.50, -6.56, SPS, 9
237.76, 39.31295394897, -77.03768920898, 8.36, -116.89, -7.31, 1.06, -116.95, -110.37, -6.52, -6.52, SPS, 9
237.97, 39.31294631958, -77.03771209717, 8.34, -116.81, -7.19, 1.13, -116.62, -110.06, -6.75, -6.75, SPS, 9
238.17, 39.31293869019, -77.03771972656, 8.35, -116.38, -7.19, 0.94, -117.14, -109.74, -6.59, -6.64, SPS, 9
238.37, 39.31293106079, -77.03774261475, 8.36, -116.48, -7.19, 0.88, -116.04, -109.43, -7.06, -7.05, SPS, 9
238.58, 39.31292343140, -77.03775787354, 8.36, -115.99, -7.50, 1.19, -115.50, -109.18, -6.75, -6.80, SPS, 9
238.78, 39.31292343140, -77.03778076172, 8.36, -115.36, -7.50, 1.06, -114.77, -108.93, -6.29, -6.43, SPS, 9
238.99, 39.31291198730, -77.03778839111, 8.46, -114.66, -7.44, 1.00, -114.29, -108.62, -5.95, -6.04, SPS, 9
239.19, 39.31290435791, -77.03781890869, 8.51, -114.12, -7.44, 1.06, -112.80, -108.37, -5.66, -5.76, SPS, 9
239.34, 39.31290054321, -77.03783416748, 8.53, -112.96, -7.44, 1.13, -112.70, -108.18, -4.46, -4.77, SPS, 9
239.55, 39.31289291382, -77.03784942627, 8.53, -112.91, -7.44, 1.06, -113.13, -107.93, -5.14, -4.98, SPS, 9
239.75, 39.31288909912, -77.03787231445, 8.43, -113.91, -7.25, 1.13, -114.36, -107.62, -6.68, -6.29, SPS, 9
239.96, 39.31288146973, -77.03788757324, 8.32, -113.87, -7.25, 1.31, -113.92, -107.49, -6.43, -6.37, SPS, 9
240.16, 39.31287384033, -77.03791046143, 8.34, -113.69, -7.38, 1.19, -113.73, -107.37, -6.30, -6.32, SPS, 9
240.36, 39.31286621094, -77.03791809082, 8.39, -113.25, -7.31, 1.38, -113.17, -107.18, -5.93, -6.07, SPS, 9
240.57, 39.31286239624, -77.03794097900, 8.42, -112.96, -7.31, 1.25, -112.94, -107.06, -5.82, -5.90, SPS, 9
240.77, 39.31285858154, -77.03795623779, 8.43, -112.24, -7.44, 1.19, -112.13, -106.87, -5.10, -5.37, SPS, 9
240.98, 39.31285095215, -77.03797912598, 8.33, -112.05, -7.44, 1.44, -112.95, -106.68, -5.39, -5.37, SPS, 9
241.18, 39.31284332275, -77.03799438477, 8.30, -112.58, -7.50, 1.38, -112.96, -106.49, -6.32, -6.09, SPS, 9
241.38, 39.31283950806, -77.03801727295, 8.29, -112.48, -7.38, 1.44, -112.45, -106.24, -6.19, -6.23, SPS, 9
241.59, 39.31283187866, -77.03803253174, 8.29, -112.16, -7.38, 1.88, -112.04, -105.93, -6.23, -6.23, SPS, 9
241.79, 39.31282806396, -77.03804779053, 8.31, -111.58, -7.56, 1.81, -111.66, -105.56, -5.89, -6.03, SPS, 9
242.00, 39.31282424927, -77.03807067871, 8.31, -111.16, -7.63, 1.81, -111.21, -105.18, -5.90, -5.98, SPS, 9
242.20, 39.31281661987, -77.03808593750, 8.27, -110.82, -7.63, 1.88, -110.78, -104.87, -5.91, -5.96, SPS, 9
242.40, 39.31281280518, -77.03810882568, 8.16, -110.32, -7.88, 1.38, -110.14, -104.56, -5.60, -5.77, SPS, 9
242.61, 39.31280517578, -77.03812408447, 8.21, -110.13, -8.06, 1.50, -110.43, -104.31, -5.98, -5.83, SPS, 9
242.76, 39.31280136108, -77.03814697266, 8.23, -110.50, -8.06, 1.69, -110.79, -104.24, -6.55, -6.26, SPS, 9
242.96, 39.31279373169, -77.03815460205, 8.28, -110.69, -8.13, 1.56, -110.82, -104.18, -6.64, -6.51, SPS, 9
243.17, 39.31278991699, -77.03817749023, 8.22, -110.46, -8.13, 1.50, -110.09, -104.18, -6.13, -6.27, SPS, 9
243.37, 39.31278228760, -77.03819274902, 8.23, -110.26, -8.06, 1.38, -110.24, -104.18, -6.07, -6.08, SPS, 9
243.58, 39.31278228760, -77.03821563721, 8.21, -110.41, -7.81, 1.25, -110.48, -104.18, -6.39, -6.23, SPS, 9
243.78, 39.31277465820, -77.03823089600, 8.12, -110.43, -7.50, 1.31, -110.26, -104.18, -6.23, -6.25, SPS, 9
243.98, 39.31277084351, -77.03824615479, 8.12, -110.23, -7.56, 1.25, -110.14, -104.18, -5.94, -6.05, SPS, 10
244.19, 39.31276321411, -77.03826904297, 8.14, -110.33, -7.75, 1.25, -110.51, -104.31, -6.04, -6.02, SPS, 10
244.39, 39.31275939941, -77.03828430176, 8.14, -110.57, -7.88, 1.19, -110.32, -104.43, -6.16, -6.14, SPS, 10
244.60, 39.31275177002, -77.03830718994, 8.12, -110.66, -7.69, 1.00, -110.52, -104.68, -5.95, -5.98, SPS, 10
244.80, 39.31274795532, -77.03831481934, 8.09, -110.96, -7.75, 0.81, -110.76, -105.12, -5.78, -5.84, SPS, 10
245.00, 39.31274414063, -77.03833770752, 8.17, -111.04, -7.88, 0.81, -110.85, -105.68, -4.98, -5.36, SPS, 9
245.21, 39.31274032593, -77.03835296631, 8.17, -111.49, -7.81, 1.19, -112.36, -106.37, -4.98, -5.12, SPS, 9
245.41, 39.31273269653, -77.03837585449, 8.18, -112.77, -7.94, 1.06, -112.78, -107.06, -5.88, -5.72, SPS, 9
245.62, 39.31272506714, -77.03838348389, 8.19, -113.47, -7.88, 0.94, -113.23, -107.68, -5.85, -5.79, SPS, 9
245.82, 39.31272125244, -77.03840637207, 8.10, -113.98, -7.75, 1.13, -113.77, -108.43, -5.42, -5.55, SPS, 9
246.02, 39.31271362305, -77.03842926025, 8.08, -114.64, -7.75, 1.25, -114.91, -109.18, -5.47, -5.46, SPS, 9
246.18, 39.31270599365, -77.03843688965, 8.05, -115.30, -7.81, 1.50, -115.46, -109.74, -5.51, -5.55, SPS, 9
246.38, 39.31270217896, -77.03845977783, 8.04, -115.76, -7.63, 1.44, -115.96, -110.43, -5.09, -5.33, SPS, 9
246.59, 39.31269454956, -77.03846740723, 8.01, -116.69, -7.13, 1.06, -115.58, -111.06, -4.52, -5.08, SPS, 9
246.79, 39.31268692017, -77.03849029541, 7.90, -116.85, -6.88, 1.19, -117.45, -111.68, -5.77, -5.47, SPS, 9
246.99, 39.31268310547, -77.03850555420, 7.92, -118.18, -6.94, 1.13, -118.54, -112.43, -6.11, -5.93, SPS, 9
247.20, 39.31267547607, -77.03852081299, 7.97, -119.13, -6.88, 0.81, -118.87, -113.12, -5.75, -5.88, SPS, 9
247.40, 39.31266403198, -77.03854370117, 7.99, -119.62, -6.44, 1.13, -119.42, -113.87, -5.55, -5.65, SPS, 9
247.61, 39.31266021729, -77.03855133057, 7.99, -120.46, -6.31, 1.13, -120.69, -114.68, -6.01, -5.89, SPS, 9
247.81, 39.31265258789, -77.03856658936, 7.93, -121.15, -6.44, 1.13, -120.91, -115.56, -5.35, -5.47, SPS, 9
